<?xml version="1.0" encoding="UTF-8"?>
<kml creator="plotaroute.com http://www.plotaroute.com" xmlns="http://earth.google.com/kml/2.2">
<Document>
<name>Simple Run 5km</name>
<open>1</open>
<Style id="StartIconStyle">
<IconStyle id="StartIcon">
<Icon><href>https://www.plotaroute.com/images/icons/starticon.png</href></Icon>
</IconStyle>
<LabelStyle><scale>0.7</scale></LabelStyle>
</Style>
<Style id="FinishIconStyle">
<IconStyle id="FinishIcon">
<Icon><href>https://www.plotaroute.com/images/icons/finishicon.png</href></Icon>
</IconStyle>
<LabelStyle><scale>0.7</scale></LabelStyle>
</Style>
<Style id="RoutePath">
<LineStyle>
<color>E52975F3</color>
<width>4</width>
</LineStyle>
</Style>
<Style id="WaypointIconStyle">
<IconStyle id="WaypointIcon">
<Icon><href>https://www.plotaroute.com/images/icons/waypointicon.png</href></Icon>
<hotSpot x="0.5" y="0.5" xunits="fraction" yunits="fraction"/>
</IconStyle>
<LabelStyle><scale>0.7</scale></LabelStyle>
</Style>
<LookAt>
<longitude>-9.167878</longitude>
<latitude>38.702758</latitude>
<range>400</range>
<tilt>60</tilt>
<altitudeMode>clampToGround</altitudeMode>
</LookAt>
<Folder id="Route729937">
<name><![CDATA[Simple Run 5km]]> </name><description><![CDATA[]]></description><Placemark>
<name><![CDATA[Fly-Over Tour]]></name>
<description><![CDATA[]]></description>
<styleUrl>#RoutePath</styleUrl>
<LineString id="Route">
<extrude>0</extrude>
<tessellate>1</tessellate>
<coordinates>
-9.167878,38.702758,5
-9.167878,38.702758,6
-9.167876,38.702747,6
-9.17121,38.702151,8
-9.172858,38.701832,6
-9.17458,38.701526,7
-9.174575,38.701502,7
-9.174575,38.701502,7
-9.174436,38.70103,7
-9.174436,38.70103,7
-9.174428,38.701,7
-9.174573,38.700971,7
-9.174573,38.700971,7
-9.174603,38.700966,7
-9.174503,38.700641,6
-9.174596,38.700624,6
-9.174596,38.700624,6
-9.175105,38.700529,6
-9.175076,38.700569,6
-9.175076,38.700569,6
-9.175105,38.700529,6
-9.175306,38.700495,7
-9.175306,38.700495,7
-9.175274,38.700372,6
-9.175275,38.700372,6
-9.175279,38.700388,6
-9.175349,38.700368,6
-9.175546,38.700409,7
-9.175546,38.700409,7
-9.175883,38.700463,8
-9.175883,38.700482,8
-9.175883,38.700482,8
-9.175881,38.700362,8
-9.175862,38.700356,8
-9.175862,38.700356,8
-9.176326,38.700434,7
-9.178917,38.699524,1
-9.178612,38.698499,0
-9.178652,38.698491,0
-9.178652,38.698491,0
-9.180629,38.698107,0
-9.18218,38.697856,2
-9.184418,38.697457,0
-9.187518,38.696874,2
-9.187565,38.696843,2
-9.187558,38.696827,2
-9.187655,38.696767,1
-9.189885,38.696374,4
-9.192803,38.695831,0
-9.192907,38.695789,0
-9.192907,38.695789,0
-9.192803,38.695831,0
-9.189885,38.696374,4
-9.187655,38.696767,1
-9.187558,38.696827,2
-9.187561,38.696834,2
-9.187561,38.696834,2
-9.187565,38.696843,2
-9.187518,38.696874,2
-9.184418,38.697457,0
-9.18218,38.697856,2
-9.180629,38.698107,0
-9.178582,38.698504,0
-9.178582,38.698504,0
-9.178612,38.698499,0
-9.178917,38.699524,1
-9.176326,38.700434,7
-9.175881,38.700362,8
-9.175882,38.700373,8
-9.175882,38.700373,8
-9.175883,38.700463,8
-9.175349,38.700368,6
-9.175279,38.700388,6
-9.175307,38.700497,7
-9.174503,38.700641,6
-9.174534,38.70074,7
-9.174534,38.70074,7
-9.174603,38.700966,7
-9.174428,38.701,7
-9.174567,38.701478,7
-9.172845,38.701788,6
-9.172858,38.701832,6
-9.172746,38.701854,6
-9.172746,38.701854,6
-9.17121,38.702151,8
-9.167876,38.702747,6
-9.167883,38.70278,6
</coordinates>
</LineString>
</Placemark>
<Placemark>
<name>START</name>
<styleUrl>#StartIconStyle</styleUrl>
<Point>
<coordinates>-9.167878,38.702758,5</coordinates>
</Point>
</Placemark>
<Placemark>
<name><![CDATA[Start on ]]></name>
<description><![CDATA[Start on ]]></description>
<styleUrl>#WaypointIconStyle</styleUrl>
<Point>
<coordinates>-9.167878,38.702758,0</coordinates>
</Point>
</Placemark>
<Placemark>
<name><![CDATA[Turn right]]></name>
<description><![CDATA[Turn right]]></description>
<styleUrl>#WaypointIconStyle</styleUrl>
<Point>
<coordinates>-9.167876,38.702747,0</coordinates>
</Point>
</Placemark>
<Placemark>
<name><![CDATA[Turn left]]></name>
<description><![CDATA[Turn left]]></description>
<styleUrl>#WaypointIconStyle</styleUrl>
<Point>
<coordinates>-9.17458,38.701526,0</coordinates>
</Point>
</Placemark>
<Placemark>
<name><![CDATA[Turn sharp]]></name>
<description><![CDATA[Turn sharp right]]></description>
<styleUrl>#WaypointIconStyle</styleUrl>
<Point>
<coordinates>-9.175105,38.700529,0</coordinates>
</Point>
</Placemark>
<Placemark>
<name><![CDATA[Turn right]]></name>
<description><![CDATA[Turn right]]></description>
<styleUrl>#WaypointIconStyle</styleUrl>
<Point>
<coordinates>-9.175105,38.700529,0</coordinates>
</Point>
</Placemark>
<Placemark>
<name><![CDATA[Turn left]]></name>
<description><![CDATA[Turn left]]></description>
<styleUrl>#WaypointIconStyle</styleUrl>
<Point>
<coordinates>-9.175279,38.700388,0</coordinates>
</Point>
</Placemark>
<Placemark>
<name><![CDATA[Turn right]]></name>
<description><![CDATA[Turn right]]></description>
<styleUrl>#WaypointIconStyle</styleUrl>
<Point>
<coordinates>-9.175883,38.700463,0</coordinates>
</Point>
</Placemark>
<Placemark>
<name><![CDATA[Turn left]]></name>
<description><![CDATA[Turn left]]></description>
<styleUrl>#WaypointIconStyle</styleUrl>
<Point>
<coordinates>-9.175881,38.700362,0</coordinates>
</Point>
</Placemark>
<Placemark>
<name><![CDATA[Turn left]]></name>
<description><![CDATA[Turn left]]></description>
<styleUrl>#WaypointIconStyle</styleUrl>
<Point>
<coordinates>-9.178917,38.699524,0</coordinates>
</Point>
</Placemark>
<Placemark>
<name><![CDATA[Turn right]]></name>
<description><![CDATA[Turn right]]></description>
<styleUrl>#WaypointIconStyle</styleUrl>
<Point>
<coordinates>-9.178612,38.698499,0</coordinates>
</Point>
</Placemark>
<Placemark>
<name><![CDATA[Turn sligh]]></name>
<description><![CDATA[Turn slight left]]></description>
<styleUrl>#WaypointIconStyle</styleUrl>
<Point>
<coordinates>-9.187518,38.696874,0</coordinates>
</Point>
</Placemark>
<Placemark>
<name><![CDATA[Turn left]]></name>
<description><![CDATA[Turn left]]></description>
<styleUrl>#WaypointIconStyle</styleUrl>
<Point>
<coordinates>-9.187565,38.696843,0</coordinates>
</Point>
</Placemark>
<Placemark>
<name><![CDATA[Turn right]]></name>
<description><![CDATA[Turn right]]></description>
<styleUrl>#WaypointIconStyle</styleUrl>
<Point>
<coordinates>-9.187558,38.696827,0</coordinates>
</Point>
</Placemark>
<Placemark>
<name><![CDATA[Turn left]]></name>
<description><![CDATA[Turn left]]></description>
<styleUrl>#WaypointIconStyle</styleUrl>
<Point>
<coordinates>-9.187558,38.696827,0</coordinates>
</Point>
</Placemark>
<Placemark>
<name><![CDATA[Turn right]]></name>
<description><![CDATA[Turn right]]></description>
<styleUrl>#WaypointIconStyle</styleUrl>
<Point>
<coordinates>-9.187565,38.696843,0</coordinates>
</Point>
</Placemark>
<Placemark>
<name><![CDATA[Turn sligh]]></name>
<description><![CDATA[Turn slight right]]></description>
<styleUrl>#WaypointIconStyle</styleUrl>
<Point>
<coordinates>-9.187518,38.696874,0</coordinates>
</Point>
</Placemark>
<Placemark>
<name><![CDATA[Turn right]]></name>
<description><![CDATA[Turn right]]></description>
<styleUrl>#WaypointIconStyle</styleUrl>
<Point>
<coordinates>-9.178612,38.698499,0</coordinates>
</Point>
</Placemark>
<Placemark>
<name><![CDATA[Turn right]]></name>
<description><![CDATA[Turn right]]></description>
<styleUrl>#WaypointIconStyle</styleUrl>
<Point>
<coordinates>-9.178917,38.699524,0</coordinates>
</Point>
</Placemark>
<Placemark>
<name><![CDATA[Turn sharp]]></name>
<description><![CDATA[Turn sharp left]]></description>
<styleUrl>#WaypointIconStyle</styleUrl>
<Point>
<coordinates>-9.175881,38.700362,0</coordinates>
</Point>
</Placemark>
<Placemark>
<name><![CDATA[Turn right]]></name>
<description><![CDATA[Turn right]]></description>
<styleUrl>#WaypointIconStyle</styleUrl>
<Point>
<coordinates>-9.175883,38.700463,0</coordinates>
</Point>
</Placemark>
<Placemark>
<name><![CDATA[Turn left]]></name>
<description><![CDATA[Turn left]]></description>
<styleUrl>#WaypointIconStyle</styleUrl>
<Point>
<coordinates>-9.175279,38.700388,0</coordinates>
</Point>
</Placemark>
<Placemark>
<name><![CDATA[Turn right]]></name>
<description><![CDATA[Turn right]]></description>
<styleUrl>#WaypointIconStyle</styleUrl>
<Point>
<coordinates>-9.174567,38.701478,0</coordinates>
</Point>
</Placemark>
<Placemark>
<name><![CDATA[Turn left ]]></name>
<description><![CDATA[Turn left onto Rua da Cintura do Porto de Lisboa]]></description>
<styleUrl>#WaypointIconStyle</styleUrl>
<Point>
<coordinates>-9.172845,38.701788,0</coordinates>
</Point>
</Placemark>
<Placemark>
<name><![CDATA[Turn right]]></name>
<description><![CDATA[Turn right]]></description>
<styleUrl>#WaypointIconStyle</styleUrl>
<Point>
<coordinates>-9.172858,38.701832,0</coordinates>
</Point>
</Placemark>
<Placemark>
<name><![CDATA[Turn left]]></name>
<description><![CDATA[Turn left]]></description>
<styleUrl>#WaypointIconStyle</styleUrl>
<Point>
<coordinates>-9.167876,38.702747,0</coordinates>
</Point>
</Placemark>
<Placemark>
<name><![CDATA[FINISH]]></name>
<description><![CDATA[FINISH]]></description>
<styleUrl>#WaypointIconStyle</styleUrl>
<Point>
<coordinates>-9.167883,38.70278,0</coordinates>
</Point>
</Placemark>
<Placemark>
<name><![CDATA[FINISH]]></name>
<styleUrl>#FinishIconStyle</styleUrl>
<Point>
<coordinates>-9.167883,38.70278,6</coordinates>
</Point>
</Placemark>
</Folder>
<ScreenOverlay>
<name><![CDATA[plotaroute.com]]></name>
<visibility>1</visibility>
<open>1</open>
<Icon>
<href>https://www.plotaroute.com/images/logo34reversev3.png</href>
</Icon>
<overlayXY x="0" y="0" xunits="fraction" yunits="fraction"/>
<screenXY x="0.01" y="0.94" xunits="fraction" yunits="fraction"/>
<rotationXY x="0" y="0" xunits="fraction" yunits="fraction"/>
<size x="0" y="0" xunits="fraction" yunits="fraction"/>
</ScreenOverlay>
<Snippet><![CDATA[This route was downloaded from <a href="https://www.plotaroute.com">plotaroute.com</a>]]></Snippet>
</Document>
</kml>
